{
  "type": "FeatureCollection",
  "features": [
    {
      "type": "Feature",
      "properties": {
        "@id": "relation/3749706",
        "name": "Apollo Talkies",
        "name:mr": "अपोलो टॉकीज",
        "network": "PMPML",
        "operator": "PMPML",
        "public_transport": "stop_area",
        "type": "public_transport",
        "@geometry": "center"
      },
      "geometry": {
        "type": "Point",
        "coordinates": [
          73.8645788,
          18.5194619
        ]
      },
      "id": "relation/3749706"
    },
    {
      "type": "Feature",
      "properties": {
        "@id": "relation/5828440",
        "addr:city": "Ludhiana",
        "addr:district": "Ludhiana",
        "addr:housenumber": "Grand Trunk Road, Sherpur Chowk, Sherpur",
        "addr:postcode": "141001",
        "addr:state": "Punjab",
        "addr:street": "Sherpur Chowk",
        "building": "hospital",
        "email": "info@spshospitals.com",
        "emergency": "yes",
        "layer": "-1",
        "name": "Satguru Partap Singh Apollo Hospitals",
        "note": "SPS Hospitals, Ludhiana is a state of the art 350 bedded hospital with the most eminent panel of medical professionals many of whom are leaders.",
        "operator:type": "private",
        "phone": "+91-88720-27302; 8872027036",
        "source": "OpenGovernmentData",
        "type": "multipolygon",
        "website": "https://spshospitals.com/",
        "wheelchair": "yes",
        "@geometry": "center"
      },
      "geometry": {
        "type": "Point",
        "coordinates": [
          75.8876292,
          30.8835918
        ]
      },
      "id": "relation/5828440"
    },
    {
      "type": "Feature",
      "properties": {
        "@id": "relation/6356858",
        "addr:city": "Mumbai",
        "addr:country": "IN",
        "addr:state": "Maharashtra",
        "area": "yes",
        "highway": "pedestrian",
        "is_in:city": "Mumbai",
        "is_in:country": "India",
        "is_in:country_code": "IN",
        "is_in:iso_3166_2": "IN-MH",
        "is_in:state": "Maharashtra",
        "name": "Apollo Bandar",
        "old_name": "Wellington Pier",
        "start_date": "1924",
        "type": "multipolygon",
        "@geometry": "center"
      },
      "geometry": {
        "type": "Point",
        "coordinates": [
          72.8342859,
          18.9225195
        ]
      },
      "id": "relation/6356858"
    },
    {
      "type": "Feature",
      "properties": {
        "@id": "relation/8839467",
        "addr:city": "Ernakulam",
        "addr:full": "North Kalamassery, Kalamassery, Kerala",
        "addr:postcode": "683104",
        "addr:street": "NH 47 Bypass Road, Puthiya Road",
        "landuse": "industrial",
        "name": "Apollo Tyres",
        "phone": "1800 419 7070",
        "type": "multipolygon",
        "website": "https://www.apollotyres.com/",
        "@geometry": "center"
      },
      "geometry": {
        "type": "Point",
        "coordinates": [
          76.3237782,
          10.0609554
        ]
      },
      "id": "relation/8839467"
    },
    {
      "type": "Feature",
      "properties": {
        "@id": "relation/10602045",
        "name": "IIM Apollo",
        "name:en": "IIM Apollo",
        "network": "BMTC",
        "operator": "BMTC",
        "public_transport": "stop_area",
        "type": "public_transport",
        "@geometry": "center"
      },
      "geometry": {
        "type": "Point",
        "coordinates": [
          77.599847,
          12.8962776
        ]
      },
      "id": "relation/10602045"
    },
    {
      "type": "Feature",
      "properties": {
        "@id": "relation/13947550",
        "colour": "#553592",
        "name": "Jasola Apollo",
        "public_transport": "stop_area",
        "public_transport:version": "2",
        "type": "public_transport",
        "@geometry": "center"
      },
      "geometry": {
        "type": "Point",
        "coordinates": [
          77.283267,
          28.538176
        ]
      },
      "id": "relation/13947550"
    },
    {
      "type": "Feature",
      "properties": {
        "@id": "way/39839763",
        "amenity": "pharmacy",
        "building": "apartments",
        "healthcare": "pharmacy",
        "name": "Nana Chowk Public Dispensary",
        "@geometry": "center"
      },
      "geometry": {
        "type": "Point",
        "coordinates": [
          72.8128845,
          18.9612463
        ]
      },
      "id": "way/39839763"
    },
    {
      "type": "Feature",
      "properties": {
        "@id": "way/40746844",
        "building": "industrial",
        "name": "Apollo Mills",
        "type": "shanty",
        "@geometry": "center"
      },
      "geometry": {
        "type": "Point",
        "coordinates": [
          72.8301148,
          18.9898672
        ]
      },
      "id": "way/40746844"
    },
    {
      "type": "Feature",
      "properties": {
        "@id": "way/44091445",
        "addr:city": "Bangalore",
        "addr:district": "Bengaluru Urban",
        "addr:full": "154/11, Opp, I.I.M, Bannerghatta Road",
        "addr:postcode": "560076",
        "addr:state": "Karnataka",
        "addr:street": "Bannerghatta Road",
        "amenity": "hospital",
        "email": "customercarebangalore@apollohospitals.com",
        "emergency": "yes",
        "healthcare": "hospital",
        "healthcare:speciality": "multi speciality",
        "name": "Apollo Hospital",
        "name:kn": "ಅಪೋಲೋ ಆಸ್ಪತ್ರೆ",
        "operator:type": "private",
        "source": "OpenGovernmentData",
        "website": "www.apollohospitalsbangalore.com",
        "wheelchair": "yes",
        "@geometry": "center"
      },
      "geometry": {
        "type": "Point",
        "coordinates": [
          77.5983495,
          12.89632
        ]
      },
      "id": "way/44091445"
    },
    {
      "type": "Feature",
      "properties": {
        "@id": "node/59710905",
        "amenity": "pharmacy",
        "healthcare": "pharmacy",
        "name": "SV medicos"
      },
      "geometry": {
        "type": "Point",
        "coordinates": [
          75.8669553,
          30.8748533
        ]
      },
      "id": "node/59710905"
    },
    {
      "type": "Feature",
      "properties": {
        "@id": "way/132073184",
        "amenity": "hospital",
        "emergency": "yes",
        "name": "Apollo Hospital",
        "@geometry": "center"
      },
      "geometry": {
        "type": "Point",
        "coordinates": [
          80.2457399,
          12.9630574
        ]
      },
      "id": "way/132073184"
    },
    {
      "type": "Feature",
      "properties": {
        "@id": "way/133122147",
        "addr:city": "Bengaluru",
        "addr:housenumber": "556",
        "addr:postcode": "560094",
        "addr:street": "2nd Cross Rd, AGS Layout, Dollars Colony, R.M.V. 2nd Stage",
        "building": "commercial",
        "building:levels": "3",
        "name": "Apollo Clinic",
        "@geometry": "center"
      },
      "geometry": {
        "type": "Point",
        "coordinates": [
          77.5646455,
          13.0390858
        ]
      },
      "id": "way/133122147"
    },
    {
      "type": "Feature",
      "properties": {
        "@id": "way/133485169",
        "amenity": "pharmacy",
        "name": "Sec-40 Dispensary",
        "@geometry": "center"
      },
      "geometry": {
        "type": "Point",
        "coordinates": [
          77.0595641,
          28.4504102
        ]
      },
      "id": "way/133485169"
    },
    {
      "type": "Feature",
      "properties": {
        "@id": "way/150612581",
        "addr:housenumber": "58",
        "addr:street": "Canal Circular Road",
        "amenity": "hospital",
        "email": "infokolkata@apollohospitals.com",
        "emergency": "yes",
        "healthcare": "hospital",
        "name": "Apollo Gleneagles Hospitals",
        "opening_hours": "24/7",
        "operator": "Apollo Hospitals",
        "operator:type": "private",
        "operator:wikidata": "Q4780321",
        "phone": "+91-33-2320 3040",
        "source": "bing, local knowledge",
        "url": "http://kolkata.apollohospitals.com/",
        "@geometry": "center"
      },
      "geometry": {
        "type": "Point",
        "coordinates": [
          88.4015568,
          22.5742722
        ]
      },
      "id": "way/150612581"
    },
    {
      "type": "Feature",
      "properties": {
        "@id": "way/150612583",
        "addr:district": "Kolkata",
        "addr:full": "No.58, Canal Circular Road",
        "addr:postcode": "700054",
        "addr:state": "West Bengal",
        "amenity": "hospital",
        "building": "yes",
        "email": "hospital@apollogleneagles.in",
        "healthcare": "hospital",
        "name": "Apollo Gleneagles Hospitals",
        "operator:type": "private",
        "source": "OpenGovernmentData",
        "website": "https://www.askapollo.com/india/city/kolkata",
        "@geometry": "center"
      },
      "geometry": {
        "type": "Point",
        "coordinates": [
          88.4015713,
          22.5746695
        ]
      },
      "id": "way/150612583"
    },
    {
      "type": "Feature",
      "properties": {
        "@id": "way/169458681",
        "addr:city": "Kopargaon",
        "addr:street": "Station road",
        "landuse": "industrial",
        "name": "Sanjivani Sugar Factory",
        "@geometry": "center"
      },
      "geometry": {
        "type": "Point",
        "coordinates": [
          74.4987649,
          19.9006229
        ]
      },
      "id": "way/169458681"
    },
    {
      "type": "Feature",
      "properties": {
        "@id": "way/180528252",
        "amenity": "cinema",
        "name": "Apollo",
        "name:mr": "अपोलो",
        "@geometry": "center"
      },
      "geometry": {
        "type": "Point",
        "coordinates": [
          73.8645708,
          18.5197517
        ]
      },
      "id": "way/180528252"
    },
    {
      "type": "Feature",
      "properties": {
        "@id": "way/183155829",
        "amenity": "pharmacy",
        "healthcare": "pharmacy",
        "name": "Vikas Medicals",
        "@geometry": "center"
      },
      "geometry": {
        "type": "Point",
        "coordinates": [
          72.9770913,
          19.2058217
        ]
      },
      "id": "way/183155829"
    },
    {
      "type": "Feature",
      "properties": {
        "@id": "way/183313649",
        "alt_name": "B G S Apollo Hospital",
        "amenity": "hospital",
        "emergency": "yes",
        "name": "Apollo Hospital",
        "name:kn": "ಅಪೊಲೊ ಆಸ್ಪತ್ರೆ",
        "@geometry": "center"
      },
      "geometry": {
        "type": "Point",
        "coordinates": [
          76.6324329,
          12.2958525
        ]
      },
      "id": "way/183313649"
    },
    {
      "type": "Feature",
      "properties": {
        "@id": "way/188445646",
        "addr:district": "Chennai",
        "addr:full": "12, C P Ramasamy Road, Alwarpet",
        "addr:postcode": "600018",
        "addr:state": "Tamil Nadu",
        "amenity": "hospital",
        "building": "yes",
        "healthcare": "hospital",
        "name": "Apollo Clinic & Pharmacy",
        "source": "OpenGovernmentData",
        "@geometry": "center"
      },
      "geometry": {
        "type": "Point",
        "coordinates": [
          80.2572646,
          13.0360972
        ]
      },
      "id": "way/188445646"
    },
    {
      "type": "Feature",
      "properties": {
        "@id": "way/210781419",
        "amenity": "pharmacy",
        "@geometry": "center"
      },
      "geometry": {
        "type": "Point",
        "coordinates": [
          73.0052439,
          26.2636903
        ]
      },
      "id": "way/210781419"
    },
    {
      "type": "Feature",
      "properties": {
        "@id": "way/211260239",
        "amenity": "hospital",
        "healthcare": "hospital",
        "name": "Apollo Hospital",
        "@geometry": "center"
      },
      "geometry": {
        "type": "Point",
        "coordinates": [
          80.2515186,
          13.0631198
        ]
      },
      "id": "way/211260239"
    },
    {
      "type": "Feature",
      "properties": {
        "@id": "way/215220605",
        "highway": "residential",
        "name": "Sanjivani Hospital Rd",
        "@geometry": "center"
      },
      "geometry": {
        "type": "Point",
        "coordinates": [
          72.8096648,
          19.4544931
        ]
      },
      "id": "way/215220605"
    },
    {
      "type": "Feature",
      "properties": {
        "@id": "way/221529847",
        "amenity": "pharmacy",
        "name": "Medicine Cell",
        "@geometry": "center"
      },
      "geometry": {
        "type": "Point",
        "coordinates": [
          77.1647129,
          28.6914866
        ]
      },
      "id": "way/221529847"
    },
    {
      "type": "Feature",
      "properties": {
        "@id": "way/232975269",
        "amenity": "pharmacy",
        "@geometry": "center"
      },
      "geometry": {
        "type": "Point",
        "coordinates": [
          80.9971901,
          26.8779409
        ]
      },
      "id": "way/232975269"
    },
    {
      "type": "Feature",
      "properties": {
        "@id": "way/235599901",
        "amenity": "pharmacy",
        "brand": "Apollo Pharmacy",
        "brand:wikidata": "Q62562612",
        "building": "yes",
        "drive_through": "no",
        "healthcare": "pharmacy",
        "name": "Apollo Pharmacy",
        "opening_hours": "24/7",
        "operator": "Apollo Gleneagles",
        "@geometry": "center"
      },
      "geometry": {
        "type": "Point",
        "coordinates": [
          88.4165287,
          22.5959713
        ]
      },
      "id": "way/235599901"
    },
    {
      "type": "Feature",
      "properties": {
        "@id": "way/236696865",
        "addr:city": "Kolkata",
        "addr:country": "IN",
        "addr:housenumber": "42",
        "addr:place": "BD Block",
        "addr:postcode": "700064",
        "addr:state": "West Bengal",
        "addr:suburb": "Bidhan Nagar",
        "amenity": "pharmacy",
        "building": "yes",
        "dispensing": "no",
        "healthcare": "pharmacy",
        "name": "Medicine Gallery",
        "@geometry": "center"
      },
      "geometry": {
        "type": "Point",
        "coordinates": [
          88.4099937,
          22.5960706
        ]
      },
      "id": "way/236696865"
    },
    {
      "type": "Feature",
      "properties": {
        "@id": "way/240820132",
        "amenity": "pharmacy",
        "building": "terrace",
        "name": "Health Sub centre",
        "@geometry": "center"
      },
      "geometry": {
        "type": "Point",
        "coordinates": [
          75.8275525,
          11.4190384
        ]
      },
      "id": "way/240820132"
    },
    {
      "type": "Feature",
      "properties": {
        "@id": "way/257352741",
        "amenity": "pharmacy",
        "building": "yes",
        "healthcare": "pharmacy",
        "@geometry": "center"
      },
      "geometry": {
        "type": "Point",
        "coordinates": [
          76.0036939,
          11.8029837
        ]
      },
      "id": "way/257352741"
    },
    {
      "type": "Feature",
      "properties": {
        "@id": "way/257623327",
        "addr:district": "Ahmedabad",
        "addr:full": "1, Uday Park Society, Near Sunrise Park, Vastrapur",
        "addr:postcode": "380015",
        "addr:state": "Gujarat",
        "addr:subdistrict": "Vastrapur",
        "amenity": "hospital",
        "building": "hospital",
        "building:colour": "white;grey",
        "building:levels": "6",
        "building:material": "plaster",
        "email": "sanjivanissh@yahoo.com",
        "emergency": "yes",
        "name": "Sanjivani Super Speciality Hospital",
        "operator:type": "private",
        "roof:material": "concrete",
        "roof:shape": "flat",
        "source": "OpenGovernmentData",
        "website": "http://www.sanjivanihospitals.com/",
        "@geometry": "center"
      },
      "geometry": {
        "type": "Point",
        "coordinates": [
          72.5282011,
          23.0402192
        ]
      },
      "id": "way/257623327"
    },
    {
      "type": "Feature",
      "properties": {
        "@id": "way/265627810",
        "building": "commercial",
        "name": "apollo pharmacy",
        "@geometry": "center"
      },
      "geometry": {
        "type": "Point",
        "coordinates": [
          78.3321095,
          17.4934925
        ]
      },
      "id": "way/265627810"
    },
    {
      "type": "Feature",
      "properties": {
        "@id": "way/265631698",
        "amenity": "pharmacy",
        "name": "Tulasi medical and general stores",
        "shop": "yes",
        "@geometry": "center"
      },
      "geometry": {
        "type": "Point",
        "coordinates": [
          78.4896698,
          17.4131093
        ]
      },
      "id": "way/265631698"
    },
    {
      "type": "Feature",
      "properties": {
        "@id": "way/266074798",
        "barrier": "wall",
        "healthcare": "hospital",
        "landuse": "hospital",
        "name": "Apollo Hospital",
        "@geometry": "center"
      },
      "geometry": {
        "type": "Point",
        "coordinates": [
          77.2833977,
          28.5415949
        ]
      },
      "id": "way/266074798"
    },
    {
      "type": "Feature",
      "properties": {
        "@id": "node/266376824",
        "amenity": "pharmacy",
        "created_by": "Potlatch 0.9a"
      },
      "geometry": {
        "type": "Point",
        "coordinates": [
          77.047765,
          28.4742925
        ]
      },
      "id": "node/266376824"
    },
    {
      "type": "Feature",
      "properties": {
        "@id": "node/266439699",
        "amenity": "pharmacy",
        "healthcare": "pharmacy"
      },
      "geometry": {
        "type": "Point",
        "coordinates": [
          77.0393347,
          28.4541495
        ]
      },
      "id": "node/266439699"
    },
    {
      "type": "Feature",
      "properties": {
        "@id": "node/266442449",
        "amenity": "pharmacy",
        "created_by": "Potlatch 0.9b"
      },
      "geometry": {
        "type": "Point",
        "coordinates": [
          77.1676347,
          28.5097958
        ]
      },
      "id": "node/266442449"
    },
    {
      "type": "Feature",
      "properties": {
        "@id": "node/266584684",
        "amenity": "pharmacy",
        "created_by": "Potlatch 0.9a"
      },
      "geometry": {
        "type": "Point",
        "coordinates": [
          79.1747358,
          26.6594688
        ]
      },
      "id": "node/266584684"
    },
    {
      "type": "Feature",
      "properties": {
        "@id": "node/266599678",
        "amenity": "pharmacy",
        "created_by": "Potlatch 0.9a"
      },
      "geometry": {
        "type": "Point",
        "coordinates": [
          77.031011,
          28.46193
        ]
      },
      "id": "node/266599678"
    },
    {
      "type": "Feature",
      "properties": {
        "@id": "node/266729557",
        "amenity": "pharmacy",
        "healthcare": "pharmacy",
        "name": "Gardian Pharmacy"
      },
      "geometry": {
        "type": "Point",
        "coordinates": [
          77.0467817,
          28.4169284
        ]
      },
      "id": "node/266729557"
    },
    {
      "type": "Feature",
      "properties": {
        "@id": "node/266729878",
        "amenity": "pharmacy",
        "healthcare": "pharmacy"
      },
      "geometry": {
        "type": "Point",
        "coordinates": [
          77.0511674,
          28.4174128
        ]
      },
      "id": "node/266729878"
    },
    {
      "type": "Feature",
      "properties": {
        "@id": "way/282484390",
        "bench": "yes",
        "bus": "yes",
        "highway": "platform",
        "name": "Apollo Talkies",
        "name:mr": "अपोलो टॉकीज",
        "public_transport": "platform",
        "shelter": "yes",
        "@geometry": "center"
      },
      "geometry": {
        "type": "Point",
        "coordinates": [
          73.8645788,
          18.519435
        ]
      },
      "id": "way/282484390"
    },
    {
      "type": "Feature",
      "properties": {
        "@id": "node/289486820",
        "addr:district": "Chennai",
        "addr:full": "No.645, TH Road, Tondiarpet",
        "addr:postcode": "600081",
        "addr:state": "Tamil Nadu",
        "amenity": "hospital",
        "email": "enquiry@apollohospitals.com",
        "healthcare": "hospital",
        "name": "Apollo Hospitals, Tondiarpet",
        "operator": "Apollo Hospitals",
        "operator:type": "private",
        "operator:wikidata": "Q4780321",
        "operator:wikipedia": "en:Apollo Hospitals",
        "source": "OpenGovernmentData",
        "website": "https://www.apollohospitals.com/"
      },
      "geometry": {
        "type": "Point",
        "coordinates": [
          80.2905623,
          13.1289367
        ]
      },
      "id": "node/289486820"
    },
    {
      "type": "Feature",
      "properties": {
        "@id": "way/306861065",
        "addr:district": "Bengaluru Urban",
        "addr:full": "21/2, 14th Cross, 3rd Block, Jayanagar",
        "addr:postcode": "560011",
        "addr:state": "Karnataka",
        "amenity": "hospital",
        "building": "yes",
        "building:levels": "6",
        "email": "customercarebengaluru@apollohospitals.com",
        "healthcare": "hospital",
        "healthcare:speciality": "Cardiac surgery; General and Gastro-intestinal surgery; Gynecology; Pediatric surgery; Thoracic surgery; Urology; Colorectal surgery; Cancer surgery; Orthopedics; Neurosurgery and Ear; Nose and Throat surgery",
        "name": "Apollo Speciality Hospital",
        "name:kn": "ಅಪೋಲೋ ಆಸ್ಪತ್ರೆ",
        "operator:type": "private",
        "source": "OpenGovernmentData",
        "website": "https://www.apollohospitals.com/",
        "@geometry": "center"
      },
      "geometry": {
        "type": "Point",
        "coordinates": [
          77.5843424,
          12.9362818
        ]
      },
      "id": "way/306861065"
    },
    {
      "type": "Feature",
      "properties": {
        "@id": "node/307401529",
        "addr:city": "Belandur, Bangalore",
        "addr:full": "74/1, Bellandur, Ring Road, Varthur",
        "addr:housenumber": "74/1",
        "addr:postcode": "560037",
        "addr:state": "Karnataka",
        "addr:street": "Outer Ring Road",
        "amenity": "hospital",
        "email": "whitefield@theapolloclinic.com",
        "healthcare": "hospital",
        "name": "Apollo Hospital",
        "name:kn": "ಅಪೊಲೋ ಆಸ್ಪತ್ರೆ",
        "phone": "+91-80-40222555",
        "website": "http://www.apolloclinicbangalore.com/",
        "wheelchair": "yes"
      },
      "geometry": {
        "type": "Point",
        "coordinates": [
          77.6765455,
          12.9263714
        ]
      },
      "id": "node/307401529"
    },
    {
      "type": "Feature",
      "properties": {
        "@id": "node/307413315",
        "amenity": "pharmacy",
        "healthcare": "pharmacy"
      },
      "geometry": {
        "type": "Point",
        "coordinates": [
          77.5924636,
          12.9314045
        ]
      },
      "id": "node/307413315"
    },
    {
      "type": "Feature",
      "properties": {
        "@id": "way/310037039",
        "building": "apartments",
        "name": "Sanjivani CHS",
        "@geometry": "center"
      },
      "geometry": {
        "type": "Point",
        "coordinates": [
          72.8715992,
          19.0364018
        ]
      },
      "id": "way/310037039"
    },
    {
      "type": "Feature",
      "properties": {
        "@id": "node/312507443",
        "amenity": "pharmacy",
        "created_by": "Potlatch 0.10f"
      },
      "geometry": {
        "type": "Point",
        "coordinates": [
          77.6387672,
          12.9601717
        ]
      },
      "id": "node/312507443"
    },
    {
      "type": "Feature",
      "properties": {
        "@id": "node/312507653",
        "amenity": "pharmacy"
      },
      "geometry": {
        "type": "Point",
        "coordinates": [
          77.638371,
          12.9603255
        ]
      },
      "id": "node/312507653"
    },
    {
      "type": "Feature",
      "properties": {
        "@id": "way/315499682",
        "addr:city": "Chennai",
        "addr:housenumber": "320, Padma Complex",
        "addr:postcode": "600035",
        "addr:street": "Anna Salai (Mount Road)",
        "amenity": "hospital",
        "emergency": "yes",
        "healthcare": "hospital",
        "name": "Apollo Speciality Hospital - Block A",
        "operator": "Apollo Hospitals",
        "operator:wikidata": "Q4780321",
        "operator:wikipedia": "en:Apollo Hospitals",
        "@geometry": "center"
      },
      "geometry": {
        "type": "Point",
        "coordinates": [
          80.2451684,
          13.0336469
        ]
      },
      "id": "way/315499682"
    },
    {
      "type": "Feature",
      "properties": {
        "@id": "way/315499747",
        "amenity": "hospital",
        "emergency": "no",
        "healthcare": "hospital",
        "name": "Apollo Speciality Hospital - Block B",
        "@geometry": "center"
      },
      "geometry": {
        "type": "Point",
        "coordinates": [
          80.2456392,
          13.0336169
        ]
      },
      "id": "way/315499747"
    },
    {
      "type": "Feature",
      "properties": {
        "@id": "way/315499965",
        "amenity": "hospital",
        "emergency": "no",
        "healthcare": "hospital",
        "name": "Apollo Speciality Hospital - Block C",
        "@geometry": "center"
      },
      "geometry": {
        "type": "Point",
        "coordinates": [
          80.245666,
          13.0339285
        ]
      },
      "id": "way/315499965"
    },
    {
      "type": "Feature",
      "properties": {
        "@id": "node/316995046",
        "addr:street": "HAL Airport Road",
        "amenity": "pharmacy",
        "name": "Ashwin Pharma"
      },
      "geometry": {
        "type": "Point",
        "coordinates": [
          77.6454021,
          12.9600171
        ]
      },
      "id": "node/316995046"
    },
    {
      "type": "Feature",
      "properties": {
        "@id": "node/316996413",
        "amenity": "pharmacy",
        "brand": "MedPlus",
        "brand:wikidata": "Q65684234",
        "healthcare": "pharmacy",
        "name": "MedPlus",
        "name:kn": "ಮೆಡ್ ಪ್ಲಸ್"
      },
      "geometry": {
        "type": "Point",
        "coordinates": [
          77.6372314,
          12.9605409
        ]
      },
      "id": "node/316996413"
    },
    {
      "type": "Feature",
      "properties": {
        "@id": "node/316996472",
        "amenity": "pharmacy",
        "created_by": "Potlatch 0.10f"
      },
      "geometry": {
        "type": "Point",
        "coordinates": [
          77.6371358,
          12.9600511
        ]
      },
      "id": "node/316996472"
    },
    {
      "type": "Feature",
      "properties": {
        "@id": "node/316996475",
        "amenity": "pharmacy",
        "created_by": "Potlatch 0.10f"
      },
      "geometry": {
        "type": "Point",
        "coordinates": [
          77.6375328,
          12.9586589
        ]
      },
      "id": "node/316996475"
    },
    {
      "type": "Feature",
      "properties": {
        "@id": "node/316996550",
        "amenity": "pharmacy"
      },
      "geometry": {
        "type": "Point",
        "coordinates": [
          77.6402029,
          12.9581727
        ]
      },
      "id": "node/316996550"
    },
    {
      "type": "Feature",
      "properties": {
        "@id": "node/316999477",
        "amenity": "pharmacy",
        "brand": "Apollo Pharmacy",
        "brand:wikidata": "Q62562612",
        "healthcare": "pharmacy",
        "name": "Apollo Pharmacy",
        "name:kn": "ಅಪೊಲೋ ಫಾರ್ಮಸಿ"
      },
      "geometry": {
        "type": "Point",
        "coordinates": [
          77.6489441,
          12.9686175
        ]
      },
      "id": "node/316999477"
    },
    {
      "type": "Feature",
      "properties": {
        "@id": "way/320961390",
        "landuse": "residential",
        "name": "Apollo DB City",
        "@geometry": "center"
      },
      "geometry": {
        "type": "Point",
        "coordinates": [
          75.9228561,
          22.7603948
        ]
      },
      "id": "way/320961390"
    },
    {
      "type": "Feature",
      "properties": {
        "@id": "node/324219708",
        "amenity": "pharmacy",
        "dispensing": "no",
        "drive_through": "no",
        "healthcare": "pharmacy"
      },
      "geometry": {
        "type": "Point",
        "coordinates": [
          74.8326631,
          34.0787645
        ]
      },
      "id": "node/324219708"
    },
    {
      "type": "Feature",
      "properties": {
        "@id": "way/331631567",
        "amenity": "hospital",
        "check_date": "2024-03-16",
        "healthcare": "hospital",
        "name": "Apollo Hospital",
        "@geometry": "center"
      },
      "geometry": {
        "type": "Point",
        "coordinates": [
          78.4031704,
          17.494155
        ]
      },
      "id": "way/331631567"
    },
    {
      "type": "Feature",
      "properties": {
        "@id": "way/332071364",
        "amenity": "pharmacy",
        "building": "yes",
        "name": "Sln Medical And General Stores",
        "@geometry": "center"
      },
      "geometry": {
        "type": "Point",
        "coordinates": [
          77.5438849,
          13.0161475
        ]
      },
      "id": "way/332071364"
    },
    {
      "type": "Feature",
      "properties": {
        "@id": "way/337927915",
        "amenity": "pharmacy",
        "dispensing": "yes",
        "healthcare": "pharmacy",
        "name": "Sugam Medicals",
        "@geometry": "center"
      },
      "geometry": {
        "type": "Point",
        "coordinates": [
          80.2220167,
          13.024963
        ]
      },
      "id": "way/337927915"
    },
    {
      "type": "Feature",
      "properties": {
        "@id": "way/338736567",
        "amenity": "pharmacy",
        "building": "yes",
        "healthcare": "pharmacy",
        "@geometry": "center"
      },
      "geometry": {
        "type": "Point",
        "coordinates": [
          79.4884366,
          11.6132559
        ]
      },
      "id": "way/338736567"
    },
    {
      "type": "Feature",
      "properties": {
        "@id": "way/344202919",
        "addr:city": "Kurnool",
        "addr:district": "Kurnool",
        "addr:postcode": "518003",
        "addr:street": "Kurnool - Ballari Road",
        "branch": "apollo store",
        "building": "yes",
        "name": "apollo store",
        "opening_hours": "24/7",
        "payment:cash": "yes",
        "payment:credit_cards": "yes",
        "payment:debit_cards": "yes",
        "shop": "medical_supply",
        "@geometry": "center"
      },
      "geometry": {
        "type": "Point",
        "coordinates": [
          78.0138322,
          15.8238219
        ]
      },
      "id": "way/344202919"
    },
    {
      "type": "Feature",
      "properties": {
        "@id": "way/344424581",
        "amenity": "pharmacy",
        "building": "yes",
        "healthcare": "pharmacy",
        "name": "EK Homeopathic Dispensary",
        "@geometry": "center"
      },
      "geometry": {
        "type": "Point",
        "coordinates": [
          80.6130683,
          17.5458802
        ]
      },
      "id": "way/344424581"
    },
    {
      "type": "Feature",
      "properties": {
        "@id": "way/344478708",
        "addr:district": "Hyderabad",
        "addr:full": "DMRL X Roads,Santosh Nagar, Kanchanbagh",
        "addr:postcode": "500058",
        "addr:state": "Telangana",
        "amenity": "hospital",
        "email": "apollohospitalsdrdo@gmail.com",
        "fax": "040 24342255",
        "healthcare": "hospital",
        "medical_system": "Allopathic",
        "name": "Apollo DRDO Hospital",
        "operator:type": "private",
        "phone": "040 24342222",
        "source": "OpenGovernmentData",
        "website": "https://www.apollohospitals.com",
        "@geometry": "center"
      },
      "geometry": {
        "type": "Point",
        "coordinates": [
          78.5073952,
          17.3424119
        ]
      },
      "id": "way/344478708"
    },
    {
      "type": "Feature",
      "properties": {
        "@id": "way/344633675",
        "addr:city": "kurnool",
        "addr:district": "kurnool",
        "addr:postcode": "518002",
        "addr:street": "Kurnool - Ballari Road",
        "branch": "apollo store",
        "building": "yes",
        "name": "apollo medical store",
        "opening_hours": "24/7",
        "payment:cash": "yes",
        "payment:credit_cards": "yes",
        "payment:debit_cards": "yes",
        "shop": "medical_supply",
        "@geometry": "center"
      },
      "geometry": {
        "type": "Point",
        "coordinates": [
          78.021261,
          15.8236833
        ]
      },
      "id": "way/344633675"
    },
    {
      "type": "Feature",
      "properties": {
        "@id": "way/346506903",
        "amenity": "pharmacy",
        "building": "yes",
        "healthcare": "pharmacy",
        "name": "Apollo Pharmaceuticals",
        "name:kn": "ಅಪೊಲೋ ಫಾರ್ಮಸಿ",
        "@geometry": "center"
      },
      "geometry": {
        "type": "Point",
        "coordinates": [
          77.7046644,
          13.0105307
        ]
      },
      "id": "way/346506903"
    },
    {
      "type": "Feature",
      "properties": {
        "@id": "node/347145086",
        "addr:city": "Mumbai",
        "addr:postcode": "400050",
        "addr:street": "Chapel Road",
        "amenity": "pharmacy",
        "dispensing": "yes",
        "healthcare": "pharmacy",
        "name": "Al Medica"
      },
      "geometry": {
        "type": "Point",
        "coordinates": [
          72.8275315,
          19.0508641
        ]
      },
      "id": "node/347145086"
    },
    {
      "type": "Feature",
      "properties": {
        "@id": "way/347474609",
        "addr:postcode": "560043",
        "addr:street": "B Channasandra Main Road",
        "building": "commercial",
        "building:levels": "0",
        "name": "Apollo Pharmacy",
        "name:kn": "ಅಪೊಲೋ ಫಾರ್ಮಸಿ",
        "@geometry": "center"
      },
      "geometry": {
        "type": "Point",
        "coordinates": [
          77.6565007,
          13.0091734
        ]
      },
      "id": "way/347474609"
    },
    {
      "type": "Feature",
      "properties": {
        "@id": "way/347485349",
        "amenity": "hospital",
        "building": "commercial",
        "building:levels": "5",
        "name": "Apollo Hospital",
        "name:kn": "ಅಪೋಲೋ ಆಸ್ಪತ್ರೆ",
        "@geometry": "center"
      },
      "geometry": {
        "type": "Point",
        "coordinates": [
          77.5726942,
          12.9883152
        ]
      },
      "id": "way/347485349"
    },
    {
      "type": "Feature",
      "properties": {
        "@id": "way/347489268",
        "amenity": "pharmacy",
        "building": "yes",
        "healthcare": "pharmacy",
        "name": "Shubha Ayurvedic Center",
        "@geometry": "center"
      },
      "geometry": {
        "type": "Point",
        "coordinates": [
          77.579479,
          12.937231
        ]
      },
      "id": "way/347489268"
    },
    {
      "type": "Feature",
      "properties": {
        "@id": "way/347501955",
        "amenity": "pharmacy",
        "branch": "Bandepalya",
        "brand": "Pradhan Mantri Bharatiya Janaushadhi Pariyojana Kendra",
        "brand:wikidata": "Q39058281",
        "building": "yes",
        "healthcare": "pharmacy",
        "name": "Jan Aushadhi",
        "official_name": "Pradhan Mantri Bharatiya Janaushadhi Pariyojana Kendra",
        "@geometry": "center"
      },
      "geometry": {
        "type": "Point",
        "coordinates": [
          77.641394,
          12.9053525
        ]
      },
      "id": "way/347501955"
    },
    {
      "type": "Feature",
      "properties": {
        "@id": "node/348136779",
        "addr:city": "Mumbai",
        "addr:postcode": "400050",
        "addr:street": "M Kahn Chowk",
        "amenity": "pharmacy",
        "healthcare": "pharmacy",
        "name": "Noble Plus",
        "opening_hours": "24/7"
      },
      "geometry": {
        "type": "Point",
        "coordinates": [
          72.8238839,
          19.0520576
        ]
      },
      "id": "node/348136779"
    },
    {
      "type": "Feature",
      "properties": {
        "@id": "node/349267744",
        "amenity": "pharmacy",
        "healthcare": "pharmacy"
      },
      "geometry": {
        "type": "Point",
        "coordinates": [
          78.3916995,
          17.4405212
        ]
      },
      "id": "node/349267744"
    },
    {
      "type": "Feature",
      "properties": {
        "@id": "node/349267752",
        "amenity": "pharmacy",
        "brand": "Apollo Pharmacy",
        "brand:wikidata": "Q62562612",
        "healthcare": "pharmacy",
        "name": "Apollo Pharmacy"
      },
      "geometry": {
        "type": "Point",
        "coordinates": [
          78.3922165,
          17.4411195
        ]
      },
      "id": "node/349267752"
    },
    {
      "type": "Feature",
      "properties": {
        "@id": "node/352750003",
        "amenity": "pharmacy",
        "created_by": "Merkaartor 0.12",
        "name": "Sai Krishna Medical Hall"
      },
      "geometry": {
        "type": "Point",
        "coordinates": [
          78.4415494,
          17.4426699
        ]
      },
      "id": "node/352750003"
    },
    {
      "type": "Feature",
      "properties": {
        "@id": "node/352750005",
        "amenity": "pharmacy",
        "created_by": "Merkaartor 0.12",
        "name": "Sri Sathya Sai Medical & General Stores"
      },
      "geometry": {
        "type": "Point",
        "coordinates": [
          78.4421888,
          17.4423328
        ]
      },
      "id": "node/352750005"
    },
    {
      "type": "Feature",
      "properties": {
        "@id": "way/352792919",
        "building": "apartments",
        "name": "Apollo",
        "@geometry": "center"
      },
      "geometry": {
        "type": "Point",
        "coordinates": [
          72.9809355,
          19.2515339
        ]
      },
      "id": "way/352792919"
    },
    {
      "type": "Feature",
      "properties": {
        "@id": "way/353353382",
        "addr:district": "Mumbai City",
        "addr:full": "Everest Building, 156, Tardeo Road, Tardeo, Mumbai",
        "addr:postcode": "400034",
        "addr:state": "Maharastra",
        "amenity": "hospital",
        "building": "hospital",
        "building:levels": "10",
        "healthcare": "hospital",
        "name": "Apollo Spectra Hospitals",
        "source": "Local Knowledge",
        "@geometry": "center"
      },
      "geometry": {
        "type": "Point",
        "coordinates": [
          72.8146181,
          18.9703476
        ]
      },
      "id": "way/353353382"
    },
    {
      "type": "Feature",
      "properties": {
        "@id": "way/353801910",
        "building": "hospital",
        "name": "Apollo Hospitals - Navi Mumbai",
        "@geometry": "center"
      },
      "geometry": {
        "type": "Point",
        "coordinates": [
          73.0290365,
          19.0204878
        ]
      },
      "id": "way/353801910"
    },
    {
      "type": "Feature",
      "properties": {
        "@id": "way/355004584",
        "amenity": "pharmacy",
        "building": "yes",
        "healthcare": "pharmacy",
        "name": "TamilNadu Pharmacy",
        "@geometry": "center"
      },
      "geometry": {
        "type": "Point",
        "coordinates": [
          80.1014392,
          12.9253428
        ]
      },
      "id": "way/355004584"
    },
    {
      "type": "Feature",
      "properties": {
        "@id": "way/355081025",
        "addr:housenumber": "45C",
        "amenity": "pharmacy",
        "building": "yes",
        "dispensing": "yes",
        "healthcare": "pharmacy",
        "name": "Sri Krishna Medicals",
        "phone": "+91 94444 11077;+91 98840 49670",
        "@geometry": "center"
      },
      "geometry": {
        "type": "Point",
        "coordinates": [
          80.1908083,
          12.9714047
        ]
      },
      "id": "way/355081025"
    },
    {
      "type": "Feature",
      "properties": {
        "@id": "way/355412721",
        "amenity": "pharmacy",
        "brand": "MedPlus",
        "brand:wikidata": "Q65684234",
        "building": "yes",
        "healthcare": "pharmacy",
        "name": "MedPlus",
        "@geometry": "center"
      },
      "geometry": {
        "type": "Point",
        "coordinates": [
          80.2197071,
          13.0277703
        ]
      },
      "id": "way/355412721"
    },
    {
      "type": "Feature",
      "properties": {
        "@id": "way/355910789",
        "building": "yes",
        "name": "Apollo Pharmacy",
        "@geometry": "center"
      },
      "geometry": {
        "type": "Point",
        "coordinates": [
          80.2235103,
          13.0683096
        ]
      },
      "id": "way/355910789"
    },
    {
      "type": "Feature",
      "properties": {
        "@id": "way/355998644",
        "amenity": "pharmacy",
        "building": "yes",
        "healthcare": "pharmacy",
        "name": "Balaji Medicals",
        "@geometry": "center"
      },
      "geometry": {
        "type": "Point",
        "coordinates": [
          80.1086111,
          12.9252568
        ]
      },
      "id": "way/355998644"
    },
    {
      "type": "Feature",
      "properties": {
        "@id": "way/356459206",
        "addr:city": "hyderabad",
        "addr:postcode": "500045",
        "addr:street": "Yousufguda Main Road",
        "building": "commercial",
        "building:levels": "1",
        "height": "20",
        "name": "Apollo Pharmacy",
        "@geometry": "center"
      },
      "geometry": {
        "type": "Point",
        "coordinates": [
          78.4262033,
          17.4328702
        ]
      },
      "id": "way/356459206"
    },
    {
      "type": "Feature",
      "properties": {
        "@id": "way/356534819",
        "addr:housenumber": "7-1-57/B&C",
        "addr:street": "Government school road",
        "building": "hospital",
        "name": "Apollo Spectra Hospitals",
        "@geometry": "center"
      },
      "geometry": {
        "type": "Point",
        "coordinates": [
          78.4523696,
          17.4376918
        ]
      },
      "id": "way/356534819"
    },
    {
      "type": "Feature",
      "properties": {
        "@id": "way/357056659",
        "amenity": "hospital",
        "healthcare": "hospital",
        "name": "apollo pharmacy",
        "@geometry": "center"
      },
      "geometry": {
        "type": "Point",
        "coordinates": [
          78.521561,
          17.3555734
        ]
      },
      "id": "way/357056659"
    },
    {
      "type": "Feature",
      "properties": {
        "@id": "way/357359274",
        "amenity": "pharmacy",
        "brand": "Apollo Pharmacy",
        "brand:wikidata": "Q62562612",
        "building": "yes",
        "dispensing": "yes",
        "healthcare": "pharmacy",
        "name": "Apollo Pharmacy",
        "@geometry": "center"
      },
      "geometry": {
        "type": "Point",
        "coordinates": [
          78.530184,
          17.3900242
        ]
      },
      "id": "way/357359274"
    },
    {
      "type": "Feature",
      "properties": {
        "@id": "way/357414074",
        "amenity": "pharmacy",
        "brand": "MedPlus",
        "brand:wikidata": "Q65684234",
        "building": "yes",
        "healthcare": "pharmacy",
        "name": "MedPlus",
        "@geometry": "center"
      },
      "geometry": {
        "type": "Point",
        "coordinates": [
          78.5667554,
          17.4011226
        ]
      },
      "id": "way/357414074"
    },
    {
      "type": "Feature",
      "properties": {
        "@id": "way/357414395",
        "addr:city": "Uppal Hyderabad",
        "addr:housenumber": "Uppal",
        "addr:postcode": "500039",
        "addr:street": "Vijayapuri Colony",
        "amenity": "pharmacy",
        "brand": "Apollo Pharmacy",
        "brand:wikidata": "Q62562612",
        "building": "yes",
        "healthcare": "pharmacy",
        "name": "Apollo Pharmacy",
        "opening_hours": "Mo-Su 08:00-22:00",
        "@geometry": "center"
      },
      "geometry": {
        "type": "Point",
        "coordinates": [
          78.5656579,
          17.4012546
        ]
      },
      "id": "way/357414395"
    },
    {
      "type": "Feature",
      "properties": {
        "@id": "way/357472116",
        "addr:housenumber": "466",
        "building": "apartments",
        "name": "Apollo",
        "name:en": "Apollo",
        "@geometry": "center"
      },
      "geometry": {
        "type": "Point",
        "coordinates": [
          72.8328501,
          19.0663721
        ]
      },
      "id": "way/357472116"
    },
    {
      "type": "Feature",
      "properties": {
        "@id": "way/357472461",
        "building": "construction",
        "check_date": "2025-06-16",
        "name": "Apollo Heights",
        "name:en": "Apollo Heights",
        "@geometry": "center"
      },
      "geometry": {
        "type": "Point",
        "coordinates": [
          72.8328332,
          19.0710557
        ]
      },
      "id": "way/357472461"
    },
    {
      "type": "Feature",
      "properties": {
        "@id": "way/358779332",
        "amenity": "pharmacy",
        "building": "yes",
        "healthcare": "pharmacy",
        "@geometry": "center"
      },
      "geometry": {
        "type": "Point",
        "coordinates": [
          88.4035964,
          22.5134012
        ]
      },
      "id": "way/358779332"
    },
    {
      "type": "Feature",
      "properties": {
        "@id": "way/358793752",
        "amenity": "pharmacy",
        "building": "yes",
        "drive_through": "no",
        "healthcare": "pharmacy",
        "opening_hours": "Mo-Su 08:00-23:00",
        "operator": "IIT Delhi",
        "@geometry": "center"
      },
      "geometry": {
        "type": "Point",
        "coordinates": [
          77.1879024,
          28.5457738
        ]
      },
      "id": "way/358793752"
    },
    {
      "type": "Feature",
      "properties": {
        "@id": "way/359132800",
        "addr:city": "Kiwale",
        "addr:street": "Gahunje - Mukai Chowk Kiwale - Ravet Road",
        "building": "yes",
        "name": "medical",
        "opening_hours": "24/7",
        "payment:cards": "yes",
        "payment:cash": "yes",
        "shop": "chemist",
        "@geometry": "center"
      },
      "geometry": {
        "type": "Point",
        "coordinates": [
          73.7282704,
          18.6595633
        ]
      },
      "id": "way/359132800"
    },
    {
      "type": "Feature",
      "properties": {
        "@id": "way/359154176",
        "addr:city": "Ravet",
        "addr:postcode": "412101",
        "addr:street": "Sangvi Phata-Mukai Chowk BRTS Road",
        "amenity": "pharmacy",
        "building": "yes",
        "healthcare": "pharmacy",
        "opening_hours": "24/7",
        "@geometry": "center"
      },
      "geometry": {
        "type": "Point",
        "coordinates": [
          73.7313597,
          18.6607365
        ]
      },
      "id": "way/359154176"
    },
    {
      "type": "Feature",
      "properties": {
        "@id": "way/359289215",
        "building": "yes",
        "name": "Apollo Clinic",
        "@geometry": "center"
      },
      "geometry": {
        "type": "Point",
        "coordinates": [
          88.3258187,
          22.569982
        ]
      },
      "id": "way/359289215"
    },
    {
      "type": "Feature",
      "properties": {
        "@id": "way/359957606",
        "addr:city": "pune",
        "addr:postcode": "411021",
        "addr:street": "Balaji Mandir Road",
        "building": "yes",
        "loc_name": "sirvi shop",
        "name": "new sirvi medical",
        "opening_hours": "24/7",
        "phone": "8788990609",
        "shop": "chemist",
        "@geometry": "center"
      },
      "geometry": {
        "type": "Point",
        "coordinates": [
          73.7889938,
          18.5402538
        ]
      },
      "id": "way/359957606"
    },
    {
      "type": "Feature",
      "properties": {
        "@id": "way/364724949",
        "building": "commercial",
        "name": "Apollo Medicals",
        "@geometry": "center"
      },
      "geometry": {
        "type": "Point",
        "coordinates": [
          80.2064008,
          12.9652549
        ]
      },
      "id": "way/364724949"
    },
    {
      "type": "Feature",
      "properties": {
        "@id": "node/370319221",
        "amenity": "pharmacy",
        "brand": "Apollo Pharmacy",
        "brand:wikidata": "Q62562612",
        "healthcare": "pharmacy",
        "name": "Apollo Pharmacy"
      },
      "geometry": {
        "type": "Point",
        "coordinates": [
          80.243327,
          13.0645397
        ]
      },
      "id": "node/370319221"
    },
    {
      "type": "Feature",
      "properties": {
        "@id": "way/377411626",
        "amenity": "pharmacy",
        "building": "yes",
        "name": "Expect Homeo Pharmacy",
        "@geometry": "center"
      },
      "geometry": {
        "type": "Point",
        "coordinates": [
          75.9235237,
          10.9148537
        ]
      },
      "id": "way/377411626"
    },
    {
      "type": "Feature",
      "properties": {
        "@id": "way/377412046",
        "amenity": "pharmacy",
        "building": "yes",
        "name": "Superior Homeo Pharmacy",
        "@geometry": "center"
      },
      "geometry": {
        "type": "Point",
        "coordinates": [
          75.9246632,
          10.9157728
        ]
      },
      "id": "way/377412046"
    },
    {
      "type": "Feature",
      "properties": {
        "@id": "node/378692897",
        "amenity": "pharmacy",
        "healthcare": "pharmacy",
        "name": "Appolo"
      },
      "geometry": {
        "type": "Point",
        "coordinates": [
          80.2555018,
          13.0348418
        ]
      },
      "id": "node/378692897"
    },
    {
      "type": "Feature",
      "properties": {
        "@id": "node/378692901",
        "amenity": "pharmacy",
        "healthcare": "pharmacy",
        "name": "Sugam"
      },
      "geometry": {
        "type": "Point",
        "coordinates": [
          80.2517685,
          13.0386303
        ]
      },
      "id": "node/378692901"
    },
    {
      "type": "Feature",
      "properties": {
        "@id": "node/378692904",
        "amenity": "pharmacy",
        "healthcare": "pharmacy",
        "name": "Sugam"
      },
      "geometry": {
        "type": "Point",
        "coordinates": [
          80.2502927,
          13.039551
        ]
      },
      "id": "node/378692904"
    },
    {
      "type": "Feature",
      "properties": {
        "@id": "node/378692907",
        "amenity": "pharmacy",
        "healthcare": "pharmacy"
      },
      "geometry": {
        "type": "Point",
        "coordinates": [
          80.2500307,
          13.0402754
        ]
      },
      "id": "node/378692907"
    },
    {
      "type": "Feature",
      "properties": {
        "@id": "way/387663195",
        "amenity": "pharmacy",
        "building": "yes",
        "name": "ドラッグてらしま (Drug Terashima)",
        "operator": "Deepak",
        "@geometry": "center"
      },
      "geometry": {
        "type": "Point",
        "coordinates": [
          77.6057411,
          29.1496566
        ]
      },
      "id": "way/387663195"
    },
    {
      "type": "Feature",
      "properties": {
        "@id": "way/388818356",
        "amenity": "pharmacy",
        "building": "yes",
        "@geometry": "center"
      },
      "geometry": {
        "type": "Point",
        "coordinates": [
          73.3844728,
          19.5800495
        ]
      },
      "id": "way/388818356"
    },
    {
      "type": "Feature",
      "properties": {
        "@id": "way/389325723",
        "addr:district": "Visakhapatnam",
        "addr:full": "Waltair Main Road",
        "addr:postcode": "530003",
        "addr:state": "Andhra Pradesh",
        "amenity": "hospital",
        "contact:phone": "08912529618; 2529619",
        "name": "Apollo Heart Hospital",
        "opening_hours": "24/7",
        "source": "OpenGovernmentData",
        "website": "https://www.askapollo.com/hospital/visakhapatnam/apollo-hospitals-ramnagar-vizag",
        "@geometry": "center"
      },
      "geometry": {
        "type": "Point",
        "coordinates": [
          83.3091862,
          17.7171049
        ]
      },
      "id": "way/389325723"
    },
    {
      "type": "Feature",
      "properties": {
        "@id": "way/391170885",
        "addr:place": "Kachurwahi",
        "amenity": "bank",
        "atm": "no",
        "name": "Sanjivani Sahkari Pat Sanstha",
        "name:mr": "संजिवनी सहकारी पत संस्था",
        "@geometry": "center"
      },
      "geometry": {
        "type": "Point",
        "coordinates": [
          79.3869381,
          21.3357826
        ]
      },
      "id": "way/391170885"
    },
    {
      "type": "Feature",
      "properties": {
        "@id": "node/395733453",
        "amenity": "pharmacy",
        "dispensing": "no"
      },
      "geometry": {
        "type": "Point",
        "coordinates": [
          79.3497285,
          13.6812773
        ]
      },
      "id": "node/395733453"
    },
    {
      "type": "Feature",
      "properties": {
        "@id": "node/397129033",
        "amenity": "pharmacy",
        "dispensing": "no"
      },
      "geometry": {
        "type": "Point",
        "coordinates": [
          78.9548509,
          26.9702463
        ]
      },
      "id": "node/397129033"
    },
    {
      "type": "Feature",
      "properties": {
        "@id": "way/399196021",
        "building": "commercial",
        "name": "Apollo Pharmacy",
        "name:kn": "ಅಪೊಲೊ",
        "@geometry": "center"
      },
      "geometry": {
        "type": "Point",
        "coordinates": [
          76.614654,
          12.3346946
        ]
      },
      "id": "way/399196021"
    },
    {
      "type": "Feature",
      "properties": {
        "@id": "way/403227301",
        "amenity": "pharmacy",
        "brand": "MedPlus",
        "brand:wikidata": "Q65684234",
        "building": "house",
        "building:levels": "1",
        "building:material": "brick",
        "healthcare": "pharmacy",
        "name": "MedPlus",
        "roof:levels": "0",
        "roof:shape": "flat",
        "@geometry": "center"
      },
      "geometry": {
        "type": "Point",
        "coordinates": [
          80.718915,
          16.5096533
        ]
      },
      "id": "way/403227301"
    },
    {
      "type": "Feature",
      "properties": {
        "@id": "way/403576139",
        "addr:city": "Vijayawada",
        "addr:postcode": "520010",
        "addr:street": "Bhagayya Street, Bandar Road",
        "building": "yes",
        "check_date": "2025-07-11",
        "name": "MedPlus",
        "shop": "medical_supply",
        "@geometry": "center"
      },
      "geometry": {
        "type": "Point",
        "coordinates": [
          80.6586753,
          16.496697
        ]
      },
      "id": "way/403576139"
    },
    {
      "type": "Feature",
      "properties": {
        "@id": "way/404010641",
        "amenity": "pharmacy",
        "opening_hours": "24/7",
        "operator": "PNB",
        "@geometry": "center"
      },
      "geometry": {
        "type": "Point",
        "coordinates": [
          76.2319987,
          10.9752737
        ]
      },
      "id": "way/404010641"
    },
    {
      "type": "Feature",
      "properties": {
        "@id": "way/404011009",
        "amenity": "pharmacy",
        "building": "yes",
        "@geometry": "center"
      },
      "geometry": {
        "type": "Point",
        "coordinates": [
          76.2303612,
          10.9764261
        ]
      },
      "id": "way/404011009"
    },
    {
      "type": "Feature",
      "properties": {
        "@id": "way/404023313",
        "amenity": "pharmacy",
        "@geometry": "center"
      },
      "geometry": {
        "type": "Point",
        "coordinates": [
          76.2252201,
          10.9845967
        ]
      },
      "id": "way/404023313"
    },
    {
      "type": "Feature",
      "properties": {
        "@id": "way/410231028",
        "amenity": "pharmacy",
        "building": "yes",
        "healthcare": "pharmacy",
        "@geometry": "center"
      },
      "geometry": {
        "type": "Point",
        "coordinates": [
          70.1354408,
          23.0685016
        ]
      },
      "id": "way/410231028"
    },
    {
      "type": "Feature",
      "properties": {
        "@id": "way/410267893",
        "building": "yes",
        "name": "Radhika Medical Store",
        "shop": "chemist",
        "@geometry": "center"
      },
      "geometry": {
        "type": "Point",
        "coordinates": [
          81.7931095,
          17.0243093
        ]
      },
      "id": "way/410267893"
    },
    {
      "type": "Feature",
      "properties": {
        "@id": "way/410528695",
        "addr:city": "guntur",
        "addr:district": "Guntur",
        "addr:housenumber": "251",
        "addr:postcode": "522007",
        "addr:state": "Andhra Pradesh",
        "addr:street": "Lakshmipuram Main Road",
        "amenity": "pharmacy",
        "branch": "lakshmipuram",
        "brand": "MedPlus",
        "brand:wikidata": "Q65684234",
        "building": "yes",
        "check_date": "2023-02-04",
        "healthcare": "pharmacy",
        "internet_access": "no",
        "name": "MedPlus",
        "payment:credit_cards": "yes",
        "payment:mastercard": "yes",
        "payment:upi": "yes",
        "payment:visa": "yes",
        "shop": "medical_supply",
        "source": "local knowledge",
        "wheelchair": "no",
        "@geometry": "center"
      },
      "geometry": {
        "type": "Point",
        "coordinates": [
          80.4246135,
          16.3125462
        ]
      },
      "id": "way/410528695"
    },
    {
      "type": "Feature",
      "properties": {
        "@id": "node/410710342",
        "amenity": "pharmacy"
      },
      "geometry": {
        "type": "Point",
        "coordinates": [
          80.2429776,
          13.0202464
        ]
      },
      "id": "node/410710342"
    },
    {
      "type": "Feature",
      "properties": {
        "@id": "node/410710346",
        "amenity": "pharmacy"
      },
      "geometry": {
        "type": "Point",
        "coordinates": [
          80.2429432,
          13.0201628
        ]
      },
      "id": "node/410710346"
    },
    {
      "type": "Feature",
      "properties": {
        "@id": "way/411627427",
        "addr:street": "Lakshmipuram Main Road",
        "amenity": "hospital",
        "healthcare": "hospital",
        "name": "Apollo Hospitals",
        "operator": "Apollo Hospitals",
        "operator:type": "private",
        "operator:wikidata": "Q4780321",
        "@geometry": "center"
      },
      "geometry": {
        "type": "Point",
        "coordinates": [
          80.4326034,
          16.3080166
        ]
      },
      "id": "way/411627427"
    },
    {
      "type": "Feature",
      "properties": {
        "@id": "way/412440618",
        "amenity": "pharmacy",
        "building": "yes",
        "dispensing": "yes",
        "healthcare": "pharmacy",
        "name": "A2Z medical store",
        "@geometry": "center"
      },
      "geometry": {
        "type": "Point",
        "coordinates": [
          79.5962244,
          17.9894294
        ]
      },
      "id": "way/412440618"
    },
    {
      "type": "Feature",
      "properties": {
        "@id": "way/412666883",
        "amenity": "pharmacy",
        "brand": "Apollo Pharmacy",
        "brand:wikidata": "Q62562612",
        "building": "yes",
        "dispensing": "yes",
        "healthcare": "pharmacy",
        "name": "Apollo Pharmacy",
        "@geometry": "center"
      },
      "geometry": {
        "type": "Point",
        "coordinates": [
          79.614518,
          17.9866373
        ]
      },
      "id": "way/412666883"
    },
    {
      "type": "Feature",
      "properties": {
        "@id": "way/413585727",
        "amenity": "pharmacy",
        "building": "yes",
        "dispensing": "yes",
        "healthcare": "pharmacy",
        "name": "surya medicals",
        "@geometry": "center"
      },
      "geometry": {
        "type": "Point",
        "coordinates": [
          78.488919,
          17.4364001
        ]
      },
      "id": "way/413585727"
    },
    {
      "type": "Feature",
      "properties": {
        "@id": "way/414061052",
        "addr:city": "tumkur",
        "addr:postcode": "572102",
        "addr:street": "2st cross sspuram",
        "building": "yes",
        "name": "Medplus",
        "name:kn": "ಮೆಡ್‍ಪ್ಲಸ್",
        "opening_hours": "daily 12 hours",
        "shop": "medical_supply",
        "@geometry": "center"
      },
      "geometry": {
        "type": "Point",
        "coordinates": [
          77.1102584,
          13.3334447
        ]
      },
      "id": "way/414061052"
    },
    {
      "type": "Feature",
      "properties": {
        "@id": "way/414068220",
        "building": "yes",
        "name": "Sidhagana Medplus",
        "shop": "medical_supply",
        "@geometry": "center"
      },
      "geometry": {
        "type": "Point",
        "coordinates": [
          77.1192184,
          13.3366677
        ]
      },
      "id": "way/414068220"
    },
    {
      "type": "Feature",
      "properties": {
        "@id": "node/417741645",
        "amenity": "pharmacy",
        "check_date": "2025-02-23",
        "healthcare": "pharmacy",
        "name": "Guardian Pharmacy",
        "name:en": "Guardian Pharmacy"
      },
      "geometry": {
        "type": "Point",
        "coordinates": [
          77.0634821,
          28.4569893
        ]
      },
      "id": "node/417741645"
    },
    {
      "type": "Feature",
      "properties": {
        "@id": "node/417741646",
        "amenity": "pharmacy",
        "healthcare": "pharmacy",
        "name": "Gardian Pharmacy"
      },
      "geometry": {
        "type": "Point",
        "coordinates": [
          77.0504451,
          28.4530763
        ]
      },
      "id": "node/417741646"
    },
    {
      "type": "Feature",
      "properties": {
        "@id": "node/417741647",
        "amenity": "pharmacy",
        "check_date": "2025-02-23",
        "healthcare": "pharmacy",
        "name": "Guardian Pharmacy",
        "wheelchair": "yes"
      },
      "geometry": {
        "type": "Point",
        "coordinates": [
          77.0872705,
          28.4622981
        ]
      },
      "id": "node/417741647"
    },
    {
      "type": "Feature",
      "properties": {
        "@id": "way/418032987",
        "amenity": "pharmacy",
        "building": "yes",
        "name": "Alankritha medicals",
        "source": "survey",
        "@geometry": "center"
      },
      "geometry": {
        "type": "Point",
        "coordinates": [
          78.0013971,
          16.7528906
        ]
      },
      "id": "way/418032987"
    },
    {
      "type": "Feature",
      "properties": {
        "@id": "way/425744107",
        "amenity": "pharmacy",
        "building": "yes",
        "dispensing": "yes",
        "healthcare": "pharmacy",
        "name": "Soorath medicalsQ, Kuttippuram",
        "@geometry": "center"
      },
      "geometry": {
        "type": "Point",
        "coordinates": [
          76.0339168,
          10.8441892
        ]
      },
      "id": "way/425744107"
    },
    {
      "type": "Feature",
      "properties": {
        "@id": "way/430466343",
        "amenity": "pharmacy",
        "building": "yes",
        "@geometry": "center"
      },
      "geometry": {
        "type": "Point",
        "coordinates": [
          73.9759492,
          15.2846417
        ]
      },
      "id": "way/430466343"
    },
    {
      "type": "Feature",
      "properties": {
        "@id": "way/432751544",
        "amenity": "pharmacy",
        "building": "yes",
        "name": "Geetha Medicals",
        "@geometry": "center"
      },
      "geometry": {
        "type": "Point",
        "coordinates": [
          76.1433221,
          10.6475488
        ]
      },
      "id": "way/432751544"
    },
    {
      "type": "Feature",
      "properties": {
        "@id": "way/436880394",
        "amenity": "pharmacy",
        "name": "CGHS Dispensary",
        "@geometry": "center"
      },
      "geometry": {
        "type": "Point",
        "coordinates": [
          77.1315307,
          28.6848778
        ]
      },
      "id": "way/436880394"
    },
    {
      "type": "Feature",
      "properties": {
        "@id": "node/449449825",
        "amenity": "pharmacy"
      },
      "geometry": {
        "type": "Point",
        "coordinates": [
          77.0332367,
          28.4606552
        ]
      },
      "id": "node/449449825"
    },
    {
      "type": "Feature",
      "properties": {
        "@id": "node/449449845",
        "amenity": "pharmacy"
      },
      "geometry": {
        "type": "Point",
        "coordinates": [
          77.0323526,
          28.4612136
        ]
      },
      "id": "node/449449845"
    },
    {
      "type": "Feature",
      "properties": {
        "@id": "way/450009531",
        "building": "yes",
        "name": "CHL Apollo Cancer Research",
        "office": "research",
        "@geometry": "center"
      },
      "geometry": {
        "type": "Point",
        "coordinates": [
          75.8892187,
          22.7317617
        ]
      },
      "id": "way/450009531"
    },
    {
      "type": "Feature",
      "properties": {
        "@id": "node/454081212",
        "amenity": "pharmacy",
        "brand": "MedPlus",
        "brand:wikidata": "Q65684234",
        "dispensing": "yes",
        "healthcare": "pharmacy",
        "name": "MedPlus",
        "name:kn": "ಮೆಡ್‍ಪ್ಲಸ್"
      },
      "geometry": {
        "type": "Point",
        "coordinates": [
          77.6353019,
          13.0310427
        ]
      },
      "id": "node/454081212"
    },
    {
      "type": "Feature",
      "properties": {
        "@id": "node/454142399",
        "amenity": "pharmacy",
        "dispensing": "yes",
        "name": "Sathya Medicals"
      },
      "geometry": {
        "type": "Point",
        "coordinates": [
          77.6364269,
          13.0183245
        ]
      },
      "id": "node/454142399"
    },
    {
      "type": "Feature",
      "properties": {
        "@id": "node/454206816",
        "amenity": "pharmacy",
        "healthcare": "pharmacy",
        "is_in": "Sri Venkateswara College of Engineering - SVCE",
        "name": "SVCE Clinic"
      },
      "geometry": {
        "type": "Point",
        "coordinates": [
          79.9704068,
          12.9881164
        ]
      },
      "id": "node/454206816"
    },
    {
      "type": "Feature",
      "properties": {
        "@id": "way/458437418",
        "amenity": "pharmacy",
        "building": "yes",
        "name": "Pharmacy line",
        "@geometry": "center"
      },
      "geometry": {
        "type": "Point",
        "coordinates": [
          93.6087213,
          27.0870377
        ]
      },
      "id": "way/458437418"
    },
    {
      "type": "Feature",
      "properties": {
        "@id": "node/459635161",
        "amenity": "hospital",
        "healthcare": "hospital",
        "name": "Apollo Clinic & Pharmacy"
      },
      "geometry": {
        "type": "Point",
        "coordinates": [
          80.2041657,
          13.05244
        ]
      },
      "id": "node/459635161"
    },
    {
      "type": "Feature",
      "properties": {
        "@id": "node/459642871",
        "amenity": "pharmacy",
        "healthcare": "pharmacy",
        "name": "Abhirami Medicals"
      },
      "geometry": {
        "type": "Point",
        "coordinates": [
          80.2040147,
          13.0540717
        ]
      },
      "id": "node/459642871"
    },
    {
      "type": "Feature",
      "properties": {
        "@id": "way/468702000",
        "addr:city": "Chennai",
        "addr:housenumber": "170",
        "addr:postcode": "600028",
        "addr:street": "Ramakrishna Mutt Rd, R.A. Puram, Perumal Koil Thottam, Ramakrishna Nagar, Raja Annamalai Puram",
        "amenity": "pharmacy",
        "building": "yes",
        "healthcare": "pharmacy",
        "name": "Ravi Pharmacy",
        "@geometry": "center"
      },
      "geometry": {
        "type": "Point",
        "coordinates": [
          80.2645949,
          13.0246498
        ]
      },
      "id": "way/468702000"
    },
    {
      "type": "Feature",
      "properties": {
        "@id": "way/482317712",
        "amenity": "pharmacy",
        "building": "yes",
        "name": "Paavai Medical",
        "@geometry": "center"
      },
      "geometry": {
        "type": "Point",
        "coordinates": [
          79.1040214,
          10.8793777
        ]
      },
      "id": "way/482317712"
    },
    {
      "type": "Feature",
      "properties": {
        "@id": "node/484198840",
        "amenity": "pharmacy",
        "dispensing": "yes",
        "name": "Pharmacy"
      },
      "geometry": {
        "type": "Point",
        "coordinates": [
          77.1033984,
          28.4950876
        ]
      },
      "id": "node/484198840"
    },
    {
      "type": "Feature",
      "properties": {
        "@id": "way/486697765",
        "amenity": "college",
        "name": "Sanjivani Collage",
        "@geometry": "center"
      },
      "geometry": {
        "type": "Point",
        "coordinates": [
          82.1640406,
          22.0815942
        ]
      },
      "id": "way/486697765"
    },
    {
      "type": "Feature",
      "properties": {
        "@id": "node/514314695",
        "addr:city": "Hoodi, Mahadevapura, Bangalore",
        "addr:postcode": "560048",
        "addr:street": "ITPL Main Road, near Hoodi Circle",
        "amenity": "pharmacy",
        "name": "Srinivasa Medicals"
      },
      "geometry": {
        "type": "Point",
        "coordinates": [
          77.7178824,
          12.9919585
        ]
      },
      "id": "node/514314695"
    },
    {
      "type": "Feature",
      "properties": {
        "@id": "node/520091555",
        "amenity": "pharmacy"
      },
      "geometry": {
        "type": "Point",
        "coordinates": [
          77.5317332,
          13.0360931
        ]
      },
      "id": "node/520091555"
    },
    {
      "type": "Feature",
      "properties": {
        "@id": "way/521447625",
        "amenity": "pharmacy",
        "@geometry": "center"
      },
      "geometry": {
        "type": "Point",
        "coordinates": [
          76.6529766,
          12.3385489
        ]
      },
      "id": "way/521447625"
    },
    {
      "type": "Feature",
      "properties": {
        "@id": "way/521699344",
        "amenity": "pharmacy",
        "building": "yes",
        "name": "Karunya Pharmacy",
        "@geometry": "center"
      },
      "geometry": {
        "type": "Point",
        "coordinates": [
          76.1971453,
          10.6150349
        ]
      },
      "id": "way/521699344"
    },
    {
      "type": "Feature",
      "properties": {
        "@id": "way/521703914",
        "amenity": "pharmacy",
        "building": "yes",
        "name": "Sitaram Medicals",
        "@geometry": "center"
      },
      "geometry": {
        "type": "Point",
        "coordinates": [
          76.1974015,
          10.6192476
        ]
      },
      "id": "way/521703914"
    },
    {
      "type": "Feature",
      "properties": {
        "@id": "way/521703916",
        "amenity": "pharmacy",
        "building": "yes",
        "name": "Fair Medicals",
        "@geometry": "center"
      },
      "geometry": {
        "type": "Point",
        "coordinates": [
          76.1994078,
          10.6190901
        ]
      },
      "id": "way/521703916"
    },
    {
      "type": "Feature",
      "properties": {
        "@id": "way/524362634",
        "addr:city": "Rajahmundry",
        "addr:postcode": "533103",
        "addr:street": "Anala Venkatappa Rao Road",
        "amenity": "pharmacy",
        "building": "yes",
        "name": "shivaji pharmacy",
        "@geometry": "center"
      },
      "geometry": {
        "type": "Point",
        "coordinates": [
          81.7924579,
          17.0078877
        ]
      },
      "id": "way/524362634"
    },
    {
      "type": "Feature",
      "properties": {
        "@id": "node/537994220",
        "amenity": "pharmacy",
        "dispensing": "yes",
        "healthcare": "pharmacy",
        "name": "Religare Wellness",
        "opening_hours": "24/7"
      },
      "geometry": {
        "type": "Point",
        "coordinates": [
          77.0860422,
          28.4809232
        ]
      },
      "id": "node/537994220"
    },
    {
      "type": "Feature",
      "properties": {
        "@id": "node/537994221",
        "amenity": "pharmacy",
        "dispensing": "yes",
        "fixme": "Pharmacy named is marked \"98.4\". Please check if this place exists?",
        "name": "98.4",
        "opening_hours": "24/7"
      },
      "geometry": {
        "type": "Point",
        "coordinates": [
          77.0860364,
          28.4810242
        ]
      },
      "id": "node/537994221"
    },
    {
      "type": "Feature",
      "properties": {
        "@id": "node/537994222",
        "amenity": "pharmacy",
        "check_date": "2025-02-23",
        "dispensing": "yes",
        "healthcare": "pharmacy",
        "name": "Guardian",
        "opening_hours": "24/7"
      },
      "geometry": {
        "type": "Point",
        "coordinates": [
          77.0860307,
          28.4812617
        ]
      },
      "id": "node/537994222"
    },
    {
      "type": "Feature",
      "properties": {
        "@id": "node/538425759",
        "amenity": "pharmacy",
        "branch": "Dharam Karam Road",
        "brand": "Apollo Pharmacy",
        "brand:wikidata": "Q62562612",
        "dispensing": "yes",
        "drive_through": "no",
        "healthcare": "pharmacy",
        "loc_name": "Apollo pharmacy",
        "name": "Apollo Pharmacy",
        "name:te": "హెరిటేజ్ ఫ్రెష్",
        "opening_hours": "Mo-Su 07:00-23:00",
        "payment:credit_cards": "yes",
        "payment:debit_cards": "yes",
        "payment:upi": "yes",
        "payment:upi_qr": "yes"
      },
      "geometry": {
        "type": "Point",
        "coordinates": [
          78.4503714,
          17.4387093
        ]
      },
      "id": "node/538425759"
    },
    {
      "type": "Feature",
      "properties": {
        "@id": "node/538425762",
        "amenity": "pharmacy"
      },
      "geometry": {
        "type": "Point",
        "coordinates": [
          78.4459528,
          17.4417252
        ]
      },
      "id": "node/538425762"
    },
    {
      "type": "Feature",
      "properties": {
        "@id": "node/542426401",
        "amenity": "pharmacy"
      },
      "geometry": {
        "type": "Point",
        "coordinates": [
          76.640221,
          12.2942995
        ]
      },
      "id": "node/542426401"
    },
    {
      "type": "Feature",
      "properties": {
        "@id": "node/542427344",
        "amenity": "pharmacy"
      },
      "geometry": {
        "type": "Point",
        "coordinates": [
          76.6409562,
          12.294275
        ]
      },
      "id": "node/542427344"
    },
    {
      "type": "Feature",
      "properties": {
        "@id": "node/544510422",
        "amenity": "pharmacy",
        "name": "Vihan Medico"
      },
      "geometry": {
        "type": "Point",
        "coordinates": [
          77.2145726,
          28.534559
        ]
      },
      "id": "node/544510422"
    },
    {
      "type": "Feature",
      "properties": {
        "@id": "node/544510424",
        "amenity": "pharmacy",
        "name": "Sree Durga Chemist"
      },
      "geometry": {
        "type": "Point",
        "coordinates": [
          77.215931,
          28.5321445
        ]
      },
      "id": "node/544510424"
    },
    {
      "type": "Feature",
      "properties": {
        "@id": "way/550861926",
        "amenity": "pharmacy",
        "building": "commercial",
        "building:levels": "1",
        "description": "Medical Store, Pharmacy",
        "name": "Nandi Medicals",
        "@geometry": "center"
      },
      "geometry": {
        "type": "Point",
        "coordinates": [
          77.5750015,
          13.0534181
        ]
      },
      "id": "way/550861926"
    },
    {
      "type": "Feature",
      "properties": {
        "@id": "way/551913407",
        "addr:district": "Gandhinagar",
        "addr:full": "Plot No 1A, Gidc Estate, Bhat Village",
        "addr:postcode": "382428",
        "addr:state": "Gujarat",
        "amenity": "hospital",
        "healthcare": "hospital",
        "name": "Apollo Hospitals International Limited",
        "operator": "Apollo Hospitals",
        "operator:wikidata": "Q4780321",
        "source": "OpenGovernmentData",
        "@geometry": "center"
      },
      "geometry": {
        "type": "Point",
        "coordinates": [
          72.6261456,
          23.1099846
        ]
      },
      "id": "way/551913407"
    },
    {
      "type": "Feature",
      "properties": {
        "@id": "way/559372169",
        "amenity": "pharmacy",
        "@geometry": "center"
      },
      "geometry": {
        "type": "Point",
        "coordinates": [
          73.7647828,
          15.5446585
        ]
      },
      "id": "way/559372169"
    },
    {
      "type": "Feature",
      "properties": {
        "@id": "node/560212205",
        "amenity": "pharmacy",
        "dispensing": "Annamalai medicals",
        "healthcare": "pharmacy"
      },
      "geometry": {
        "type": "Point",
        "coordinates": [
          80.1401655,
          12.9448586
        ]
      },
      "id": "node/560212205"
    },
    {
      "type": "Feature",
      "properties": {
        "@id": "node/560603709",
        "amenity": "pharmacy",
        "dispensing": "rajkumaran clinical laboratory",
        "healthcare": "pharmacy"
      },
      "geometry": {
        "type": "Point",
        "coordinates": [
          80.1381423,
          12.9464913
        ]
      },
      "id": "node/560603709"
    },
    {
      "type": "Feature",
      "properties": {
        "@id": "node/560603714",
        "amenity": "pharmacy",
        "dispensing": "no",
        "healthcare": "pharmacy",
        "name": "Sreedevi"
      },
      "geometry": {
        "type": "Point",
        "coordinates": [
          80.1384651,
          12.9463512
        ]
      },
      "id": "node/560603714"
    },
    {
      "type": "Feature",
      "properties": {
        "@id": "node/560636411",
        "amenity": "pharmacy",
        "healthcare": "pharmacy",
        "name": "maduvai"
      },
      "geometry": {
        "type": "Point",
        "coordinates": [
          80.1382264,
          12.9459548
        ]
      },
      "id": "node/560636411"
    },
    {
      "type": "Feature",
      "properties": {
        "@id": "node/560865699",
        "amenity": "pharmacy",
        "dispensing": "no",
        "name": "Kottakkal Arya Vydya Sala"
      },
      "geometry": {
        "type": "Point",
        "coordinates": [
          76.5960009,
          9.8627545
        ]
      },
      "id": "node/560865699"
    },
    {
      "type": "Feature",
      "properties": {
        "@id": "node/562622101",
        "name": "Jasola Apollo",
        "name:hi": "जसोला अपोलो",
        "network": "Delhi Metro",
        "note": "Contributors are requested to not edit the \"network\" and the \"operator\" tags. (2023/06/22)",
        "operator": "Delhi Metro Rail Corporation Limited",
        "public_transport": "stop_position",
        "railway": "stop",
        "subway": "yes",
        "@relations": [
          {
            "role": "stop",
            "rel": 13947550,
            "reltags": {
              "colour": "#553592",
              "name": "Jasola Apollo",
              "public_transport": "stop_area",
              "public_transport:version": "2",
              "type": "public_transport"
            }
          }
        ]
      },
      "geometry": {
        "type": "Point",
        "coordinates": [
          77.2830377,
          28.5384251
        ]
      },
      "id": "node/562622101"
    },
    {
      "type": "Feature",
      "properties": {
        "@id": "way/566277100",
        "amenity": "hospital",
        "emergency": "yes",
        "healthcare": "hospital",
        "name": "Apollo Hospitals - Navi Mumbai",
        "operator": "Apollo Hospitals",
        "operator:type": "private",
        "operator:wikidata": "Q4780321",
        "phone": "+ 912233503350",
        "@geometry": "center"
      },
      "geometry": {
        "type": "Point",
        "coordinates": [
          73.0290942,
          19.0204657
        ]
      },
      "id": "way/566277100"
    },
    {
      "type": "Feature",
      "properties": {
        "@id": "way/566664381",
        "amenity": "pharmacy",
        "building": "yes",
        "level": "0",
        "name": "Ashrafi Medical Hall",
        "@geometry": "center"
      },
      "geometry": {
        "type": "Point",
        "coordinates": [
          88.376213,
          26.6316385
        ]
      },
      "id": "way/566664381"
    },
    {
      "type": "Feature",
      "properties": {
        "@id": "way/568669798",
        "addr:city": "Pondicherry",
        "addr:street": "Kamaraj Salai",
        "amenity": "dentist",
        "building": "yes",
        "healthcare": "dentist",
        "name": "Apollo White Dental",
        "operator": "Apollo",
        "@geometry": "center"
      },
      "geometry": {
        "type": "Point",
        "coordinates": [
          79.810155,
          11.94123
        ]
      },
      "id": "way/568669798"
    },
    {
      "type": "Feature",
      "properties": {
        "@id": "node/569057768",
        "name": "amar medical store",
        "shop": "chemist"
      },
      "geometry": {
        "type": "Point",
        "coordinates": [
          75.8614662,
          30.8446145
        ]
      },
      "id": "node/569057768"
    },
    {
      "type": "Feature",
      "properties": {
        "@id": "way/570577052",
        "amenity": "pharmacy",
        "building": "yes",
        "name": "Suraiya Medical Hall",
        "@geometry": "center"
      },
      "geometry": {
        "type": "Point",
        "coordinates": [
          88.3754625,
          26.6303336
        ]
      },
      "id": "way/570577052"
    },
    {
      "type": "Feature",
      "properties": {
        "@id": "node/571595057",
        "amenity": "pharmacy"
      },
      "geometry": {
        "type": "Point",
        "coordinates": [
          77.3698195,
          28.6342666
        ]
      },
      "id": "node/571595057"
    },
    {
      "type": "Feature",
      "properties": {
        "@id": "node/577337496",
        "amenity": "pharmacy",
        "healthcare": "pharmacy"
      },
      "geometry": {
        "type": "Point",
        "coordinates": [
          80.1522534,
          12.5035665
        ]
      },
      "id": "node/577337496"
    },
    {
      "type": "Feature",
      "properties": {
        "@id": "node/577338617",
        "amenity": "pharmacy",
        "healthcare": "pharmacy",
        "name": "Malar Medicals"
      },
      "geometry": {
        "type": "Point",
        "coordinates": [
          80.1514593,
          12.503692
        ]
      },
      "id": "node/577338617"
    },
    {
      "type": "Feature",
      "properties": {
        "@id": "node/582775120",
        "amenity": "pharmacy",
        "healthcare": "pharmacy",
        "name": "Nazeer"
      },
      "geometry": {
        "type": "Point",
        "coordinates": [
          80.1423983,
          12.9515234
        ]
      },
      "id": "node/582775120"
    },
    {
      "type": "Feature",
      "properties": {
        "@id": "node/583230997",
        "amenity": "pharmacy",
        "dispensing": "no",
        "name": "Sharma Pharmacy"
      },
      "geometry": {
        "type": "Point",
        "coordinates": [
          76.9014212,
          31.5344595
        ]
      },
      "id": "node/583230997"
    },
    {
      "type": "Feature",
      "properties": {
        "@id": "node/583231005",
        "amenity": "pharmacy",
        "dispensing": "no",
        "name": "Gaurav Medical Store"
      },
      "geometry": {
        "type": "Point",
        "coordinates": [
          76.9028718,
          31.5342792
        ]
      },
      "id": "node/583231005"
    },
    {
      "type": "Feature",
      "properties": {
        "@id": "node/583231006",
        "amenity": "pharmacy",
        "dispensing": "no",
        "name": "M V Sharma Medical Store"
      },
      "geometry": {
        "type": "Point",
        "coordinates": [
          76.9037574,
          31.5342792
        ]
      },
      "id": "node/583231006"
    },
    {
      "type": "Feature",
      "properties": {
        "@id": "way/585655910",
        "amenity": "pharmacy",
        "brand": "Apollo Pharmacy",
        "brand:wikidata": "Q62562612",
        "building": "commercial",
        "healthcare": "pharmacy",
        "name": "Apollo Pharmacy",
        "smoking": "no",
        "@geometry": "center"
      },
      "geometry": {
        "type": "Point",
        "coordinates": [
          80.4369653,
          16.3085455
        ]
      },
      "id": "way/585655910"
    },
    {
      "type": "Feature",
      "properties": {
        "@id": "node/590753378",
        "amenity": "pharmacy",
        "name": "Sri Manjunath Medical & General stores"
      },
      "geometry": {
        "type": "Point",
        "coordinates": [
          77.6642849,
          12.9248306
        ]
      },
      "id": "node/590753378"
    },
    {
      "type": "Feature",
      "properties": {
        "@id": "node/595305844",
        "amenity": "pharmacy",
        "name": "Dava Sagar"
      },
      "geometry": {
        "type": "Point",
        "coordinates": [
          77.6517029,
          13.0257078
        ]
      },
      "id": "node/595305844"
    },
    {
      "type": "Feature",
      "properties": {
        "@id": "node/595305848",
        "addr:street": "Horamavu Agara Main Road",
        "amenity": "pharmacy",
        "brand": "Apollo Pharmacy",
        "brand:wikidata": "Q62562612",
        "healthcare": "pharmacy",
        "name": "Apollo Pharmacy",
        "name:kn": "ಅಪೊಲೋ ಫಾರ್ಮಸಿ"
      },
      "geometry": {
        "type": "Point",
        "coordinates": [
          77.6510216,
          13.0231103
        ]
      },
      "id": "node/595305848"
    },
    {
      "type": "Feature",
      "properties": {
        "@id": "node/595662363",
        "amenity": "pharmacy",
        "healthcare": "pharmacy",
        "name": "Geetha Pharmacy"
      },
      "geometry": {
        "type": "Point",
        "coordinates": [
          80.1939439,
          13.0570316
        ]
      },
      "id": "node/595662363"
    },
    {
      "type": "Feature",
      "properties": {
        "@id": "way/596854590",
        "amenity": "pharmacy",
        "building": "yes",
        "dispensing": "yes",
        "healthcare": "pharmacy",
        "name": "36.6",
        "@geometry": "center"
      },
      "geometry": {
        "type": "Point",
        "coordinates": [
          80.0851527,
          12.9744854
        ]
      },
      "id": "way/596854590"
    },
    {
      "type": "Feature",
      "properties": {
        "@id": "way/600321678",
        "building": "yes",
        "name": "Apollo Pharmacy",
        "@geometry": "center"
      },
      "geometry": {
        "type": "Point",
        "coordinates": [
          79.2686153,
          17.0580124
        ]
      },
      "id": "way/600321678"
    },
    {
      "type": "Feature",
      "properties": {
        "@id": "way/602543849",
        "amenity": "pharmacy",
        "building": "yes",
        "description": "medical store",
        "dispensing": "yes",
        "healthcare": "pharmacy",
        "@geometry": "center"
      },
      "geometry": {
        "type": "Point",
        "coordinates": [
          79.4754208,
          18.2904087
        ]
      },
      "id": "way/602543849"
    },
    {
      "type": "Feature",
      "properties": {
        "@id": "way/602543851",
        "amenity": "pharmacy",
        "building": "yes",
        "dispensing": "yes",
        "healthcare": "pharmacy",
        "@geometry": "center"
      },
      "geometry": {
        "type": "Point",
        "coordinates": [
          79.4753949,
          18.2904588
        ]
      },
      "id": "way/602543851"
    },
    {
      "type": "Feature",
      "properties": {
        "@id": "node/605221678",
        "amenity": "pharmacy",
        "healthcare": "pharmacy",
        "name": "Bobby's"
      },
      "geometry": {
        "type": "Point",
        "coordinates": [
          72.8270162,
          18.9446858
        ]
      },
      "id": "node/605221678"
    },
    {
      "type": "Feature",
      "properties": {
        "@id": "node/605222666",
        "amenity": "pharmacy",
        "healthcare": "pharmacy"
      },
      "geometry": {
        "type": "Point",
        "coordinates": [
          72.8279067,
          18.9413574
        ]
      },
      "id": "node/605222666"
    },
    {
      "type": "Feature",
      "properties": {
        "@id": "node/605222671",
        "amenity": "pharmacy",
        "healthcare": "pharmacy"
      },
      "geometry": {
        "type": "Point",
        "coordinates": [
          72.82766,
          18.9413117
        ]
      },
      "id": "node/605222671"
    },
    {
      "type": "Feature",
      "properties": {
        "@id": "node/605222672",
        "addr:city": "Mumbai",
        "addr:housename": "Kakkad Arcade",
        "addr:housenumber": "50, 51",
        "addr:postcode": "400020",
        "addr:street": "New Marine Lines",
        "amenity": "pharmacy",
        "healthcare": "pharmacy",
        "name": "Real Chemist"
      },
      "geometry": {
        "type": "Point",
        "coordinates": [
          72.8275945,
          18.9413633
        ]
      },
      "id": "node/605222672"
    },
    {
      "type": "Feature",
      "properties": {
        "@id": "node/612527668",
        "amenity": "pharmacy",
        "name": "Seven Star Pharmacy"
      },
      "geometry": {
        "type": "Point",
        "coordinates": [
          80.2083688,
          13.0726659
        ]
      },
      "id": "node/612527668"
    },
    {
      "type": "Feature",
      "properties": {
        "@id": "node/613342446",
        "amenity": "pharmacy",
        "healthcare": "pharmacy",
        "name": "City Medical"
      },
      "geometry": {
        "type": "Point",
        "coordinates": [
          77.0634431,
          28.4569104
        ]
      },
      "id": "node/613342446"
    },
    {
      "type": "Feature",
      "properties": {
        "@id": "way/616321800",
        "amenity": "pharmacy",
        "building": "yes",
        "dispensing": "yes",
        "healthcare": "pharmacy",
        "name": "Central Medical Store",
        "operator": "Government",
        "@geometry": "center"
      },
      "geometry": {
        "type": "Point",
        "coordinates": [
          78.040557,
          15.8155423
        ]
      },
      "id": "way/616321800"
    },
    {
      "type": "Feature",
      "properties": {
        "@id": "node/617760063",
        "addr:city": "Malleswaram, Bangalore",
        "addr:street": "8th Main",
        "amenity": "pharmacy",
        "name": "Pushyamee"
      },
      "geometry": {
        "type": "Point",
        "coordinates": [
          77.5652425,
          13.0006252
        ]
      },
      "id": "node/617760063"
    },
    {
      "type": "Feature",
      "properties": {
        "@id": "way/618242741",
        "addr:city": "Koratty",
        "addr:postcode": "680308",
        "amenity": "pharmacy",
        "building": "yes",
        "dispensing": "yes",
        "healthcare": "pharmacy",
        "name": "Everest Ayurveda Medical Shop",
        "opening_hours": "09:00-14:00",
        "operator": "P.I Joy ,Reji Joy",
        "@geometry": "center"
      },
      "geometry": {
        "type": "Point",
        "coordinates": [
          76.3827342,
          10.2769276
        ]
      },
      "id": "way/618242741"
    },
    {
      "type": "Feature",
      "properties": {
        "@id": "way/618257448",
        "amenity": "pharmacy",
        "building": "yes",
        "dispensing": "yes",
        "healthcare": "pharmacy",
        "@geometry": "center"
      },
      "geometry": {
        "type": "Point",
        "coordinates": [
          76.3389483,
          10.4272409
        ]
      },
      "id": "way/618257448"
    },
    {
      "type": "Feature",
      "properties": {
        "@id": "way/618411773",
        "addr:postcode": "680721",
        "addr:street": "Athirapally Falls road",
        "amenity": "pharmacy",
        "building": "yes",
        "dispensing": "yes",
        "healthcare": "pharmacy",
        "name": "Manavalan Medical Shop",
        "opening_hours": "Mo-Sa 08:00-21:00",
        "@geometry": "center"
      },
      "geometry": {
        "type": "Point",
        "coordinates": [
          76.3512635,
          10.3304187
        ]
      },
      "id": "way/618411773"
    },
    {
      "type": "Feature",
      "properties": {
        "@id": "node/618560424",
        "amenity": "pharmacy",
        "name": "Medical Shop"
      },
      "geometry": {
        "type": "Point",
        "coordinates": [
          76.9623653,
          8.5088317
        ]
      },
      "id": "node/618560424"
    },
    {
      "type": "Feature",
      "properties": {
        "@id": "way/618947414",
        "amenity": "pharmacy",
        "building": "yes",
        "dispensing": "yes",
        "healthcare": "pharmacy",
        "name": "MAA MANGALA PATHOLOGY LAB",
        "@geometry": "center"
      },
      "geometry": {
        "type": "Point",
        "coordinates": [
          85.5108385,
          20.1402163
        ]
      },
      "id": "way/618947414"
    },
    {
      "type": "Feature",
      "properties": {
        "@id": "way/619946064",
        "addr:postcode": "688522",
        "addr:street": "Mannancherry-Kalavoor Road",
        "amenity": "pharmacy",
        "building": "yes",
        "dispensing": "yes",
        "healthcare": "pharmacy",
        "name": "Anugraha Medical Shop",
        "@geometry": "center"
      },
      "geometry": {
        "type": "Point",
        "coordinates": [
          76.3294595,
          9.5707949
        ]
      },